terminal_name,lat,lon
Terminal Coquimbo,-29.949655,-71.336698
Terminal San Borja,-33.376384,-70.676051
Terminal Los Libertadores,-33.366267,-70.692928
Terminal Vina,-33.02448,-71.546921
Terminal Placilla,-33.114552,-71.55972
Terminal Curacavi,-33.411886,-71.159755
Terminal Pajaritos,-33.458675,-70.71157
